City_ID,City,Lat,Lng,Max Temp,Humidity,Cloudiness,Wind Speed,Country,Date
0,zouerate,22.7187,-12.4521,86.38,11,17,12.24,MR,1684603824
1,invercargill,-46.4,168.35,42.49,82,70,2.06,NZ,1684603824
2,isangel,-19.55,169.2667,73.96,73,99,10.58,VU,1684603485
3,port elizabeth,-33.918,25.5701,60.31,77,0,5.75,ZA,1684603825
4,sola,-13.8833,167.55,80.65,83,94,12.73,VU,1684603826
5,kasongo-lunda,-6.4667,16.8167,74.95,90,96,1.74,CD,1684603826
6,bethel,41.3712,-73.414,63.64,89,100,5.75,US,1684603826
7,phan rang-thap cham,11.5667,108.9833,80.6,89,98,4.97,VN,1684603827
8,plastun,44.7561,136.2939,43.0,98,100,6.06,RU,1684603827
9,port mathurin,-19.6833,63.4167,77.47,75,12,8.1,MU,1684603827
10,cassilandia,-19.1133,-51.7342,81.68,31,24,4.54,BR,1684603828
11,waitangi,-43.9535,-176.5597,57.81,95,93,1.01,NZ,1684603828
12,alofi,-19.0595,-169.9187,76.89,100,81,5.75,NU,1684603461
13,grytviken,-54.2811,-36.5092,32.11,98,92,0.92,GS,1684603829
14,olonkinbyen,70.9221,-8.7187,35.71,85,56,20.96,SJ,1684603531
15,apucarana,-23.5508,-51.4608,69.93,50,98,6.15,BR,1684603829
16,tiksi,71.6872,128.8694,14.09,92,100,10.89,RU,1684603829
17,faya-largeau,17.9257,19.1043,102.27,8,20,1.34,TD,1684603471
18,talara,-4.5772,-81.2719,86.76,54,0,13.8,PE,1684603830
19,bilibino,68.0546,166.4372,36.97,91,95,3.53,RU,1684603646
20,kodiak,57.79,-152.4072,44.11,81,100,21.85,US,1684603251
21,constantia,44.1833,28.65,72.28,67,29,13.87,RO,1684603479
22,bredasdorp,-34.5322,20.0403,61.43,69,100,11.61,ZA,1684603831
23,georgetown,5.4112,100.3354,84.13,71,40,9.22,MY,1684603815
24,blackmans bay,-43.0167,147.3167,46.72,73,77,18.32,AU,1684603832
25,hasaki,35.7333,140.8333,64.22,91,100,14.05,JP,1684603290
26,adamstown,-25.066,-130.1015,75.65,80,18,19.55,PN,1684603832
27,juliaca,-15.5,-70.1333,60.78,31,0,6.98,PE,1684603833
28,lihue,21.9789,-159.3672,75.74,89,0,8.05,US,1684603555
29,gadzhiyevo,69.2551,33.3362,51.58,68,96,2.84,RU,1684603335
30,yellowknife,62.456,-114.3525,46.92,42,75,15.01,CA,1684603783
31,carnarvon,-24.8667,113.6333,69.01,33,0,17.34,AU,1684603494
32,pereira barreto,-20.6383,-51.1092,83.35,28,14,4.59,BR,1684603834
33,khash,28.2211,61.2158,83.66,19,5,17.49,IR,1684603639
34,punta arenas,-53.15,-70.9167,41.11,75,0,3.44,CL,1684603835
35,keflavik,64.0049,-22.5624,44.51,75,75,32.21,IS,1684603318
36,nguruka,-5.1092,31.0419,70.93,67,91,2.73,TZ,1684603836
37,port-aux-francais,-49.35,70.2167,39.63,63,54,20.58,TF,1684603641
38,port sudan,19.6175,37.2164,81.77,55,1,7.76,SD,1684603836
39,vorkuta,67.5,64.0,31.42,89,34,4.29,RU,1684603292
40,mermoz boabab,14.7065,-17.4758,84.76,78,20,18.41,SN,1684603837
41,edinburgh of the seven seas,-37.0676,-12.3116,63.52,93,98,12.77,SH,1684603837
42,cabo san lucas,22.8909,-109.9124,86.61,66,20,6.91,MX,1684603564
43,weno,7.4515,151.8468,80.55,94,100,10.36,FM,1684603440
44,santa maria,-29.6842,-53.8069,74.5,57,0,2.3,BR,1684603539
45,ushuaia,-54.8,-68.3,44.26,61,40,9.22,AR,1684603838
46,smithers,54.7804,-127.1743,62.92,51,40,6.91,CA,1684603215
47,prenzlau,53.3167,13.8667,64.87,82,45,7.43,DE,1684603838
48,westport,41.1415,-73.3579,64.56,91,100,11.5,US,1684603549
49,klyuchi,52.2667,79.1667,55.42,40,4,7.81,RU,1684603265
50,evanston,42.0411,-87.6901,67.48,59,75,11.5,US,1684603813
51,afaahiti,-17.75,-149.2833,75.07,81,44,6.98,PF,1684603839
52,palikir - national government center,6.9248,158.1611,75.94,94,75,0.0,FM,1684603572
53,kashgar,39.4547,75.9797,72.61,28,78,6.71,CN,1684603529
54,al khafji,28.4391,48.4913,84.79,57,66,22.21,SA,1684603840
55,west island,-12.1568,96.8225,78.78,89,26,10.36,CC,1684603840
56,carlinville,39.2798,-89.8818,68.67,56,0,11.92,US,1684603840
57,mar del plata,-38.0023,-57.5575,54.95,61,75,9.22,AR,1684603560
58,calca,-13.3333,-71.95,67.35,65,52,5.23,PE,1684603840
59,dudinka,69.4058,86.1778,13.64,94,41,3.0,RU,1684603386
60,galesong,-5.3166,119.3661,77.02,81,54,13.0,ID,1684603840
61,fale old settlement,-9.3852,-171.2468,82.8,80,69,15.61,TK,1684603841
62,mo i rana,66.3128,14.1428,51.33,84,100,3.44,NO,1684603841
63,itapirapua,-15.8233,-50.6133,92.64,18,0,1.61,BR,1684603841
64,katsuren-haebaru,26.3369,127.8719,73.42,95,40,5.75,JP,1684603841
65,newport,51.5877,-2.9984,66.74,75,0,10.69,GB,1684603842
66,kailua-kona,19.6406,-155.9956,81.59,82,40,6.91,US,1684603273
67,nuku'alofa,-21.1333,-175.2,77.34,94,75,4.61,TO,1684603442
68,iqaluit,63.7506,-68.5145,28.13,68,75,10.36,CA,1684603788
69,wotho,10.1657,166.0102,81.82,82,95,13.22,MH,1684603842
70,namibe,-15.1961,12.1522,69.69,73,0,8.5,AO,1684603441
71,atafu village,-8.5421,-172.5159,83.88,77,56,17.56,TK,1684603843
72,lasem,-6.6922,111.4527,75.81,80,15,8.28,ID,1684603843
73,vila franca do campo,37.7167,-25.4333,66.61,68,66,16.15,PT,1684603550
74,colonia,50.9333,6.95,66.58,58,40,11.5,DE,1684603287
75,zuni pueblo,35.0725,-108.8506,65.03,28,8,10.63,US,1684603843
76,saipan,15.1355,145.701,81.3,100,0,8.05,MP,1684603843
77,jamestown,42.097,-79.2353,56.84,89,100,5.99,US,1684603844
78,novodvinsk,64.4165,40.8122,56.1,48,0,1.9,RU,1684603477
79,larreynaga,12.6769,-86.5719,101.32,24,100,4.14,NI,1684603844
80,kaoma,-14.7833,24.8,75.04,29,75,5.08,ZM,1684603488
81,igarka,67.4667,86.5833,32.18,82,100,11.36,RU,1684603475
82,curvelo,-18.7564,-44.4308,82.58,25,2,1.81,BR,1684603844
83,ketchikan,55.3422,-131.6461,57.67,82,40,10.36,US,1684603712
84,east london,-33.0153,27.9116,56.34,76,0,4.61,ZA,1684603845
85,lebu,-37.6167,-73.65,54.68,65,94,12.3,CL,1684603845
86,isafjordur,66.0755,-23.124,44.64,61,100,20.71,IS,1684603845
87,avarua,-21.2078,-159.775,64.45,100,88,1.14,CK,1684603845
88,kone,-21.0595,164.8658,64.31,72,44,3.62,NC,1684603500
89,nemuro,43.3236,145.575,41.81,94,76,8.97,JP,1684603846
90,okulovka,58.4008,33.2908,56.35,58,92,5.41,RU,1684603727
91,gongzhuling,43.5008,124.8198,50.61,51,49,11.95,CN,1684603846
92,borujen,31.9652,51.2873,59.79,50,100,5.41,IR,1684603846
93,vorgashor,67.5833,63.95,29.35,91,46,4.25,RU,1684603846
94,hawaiian paradise park,19.5933,-154.9731,77.04,92,75,4.61,US,1684603847
95,aasiaat,68.7098,-52.8699,30.4,91,100,18.57,GL,1684603847
96,puerto natales,-51.7236,-72.4875,50.45,53,40,16.11,CL,1684603640
97,balikpapan,-1.2675,116.8289,83.39,84,40,4.61,ID,1684603847
98,thompson,55.7435,-97.8558,42.96,52,20,14.97,CA,1684603227
99,tateyama,34.9833,139.8667,62.38,90,76,7.0,JP,1684603847
100,bandarbeyla,9.4942,50.8122,82.0,85,23,14.88,SO,1684603848
101,boende,-0.2167,20.8667,81.82,63,100,1.61,CD,1684603848
102,qaqortoq,60.7167,-46.0333,33.78,85,100,10.74,GL,1684603275
103,anadyr,64.75,177.4833,27.1,100,0,4.47,RU,1684603848
104,sao vicente,-23.9631,-46.3919,83.26,57,20,5.75,BR,1684603848
105,diego de almagro,-26.3667,-70.05,72.46,23,100,7.2,CL,1684603848
106,vilyuchinsk,52.9306,158.4028,32.27,99,100,1.01,RU,1684603395
107,iskateley,67.6803,53.1512,42.96,62,80,5.64,RU,1684603849
108,antsiranana,-12.2787,49.2917,74.68,92,27,6.2,MG,1684603474
109,ancud,-41.8697,-73.8203,46.8,83,100,18.45,CL,1684603127
110,ariquemes,-9.9133,-63.0408,90.05,53,31,2.48,BR,1684603849
111,bikenibeu village,1.3673,173.1241,82.36,83,75,4.61,KI,1684603850
112,kuta,-8.7233,115.1723,78.75,83,20,9.22,ID,1684603850
113,zima,53.9202,102.0442,41.7,57,43,1.99,RU,1684603850
114,katsuura,35.1333,140.3,62.62,93,97,11.86,JP,1684603444
115,welland,42.9834,-79.2496,59.41,97,100,8.28,CA,1684603553
116,uturoa,-16.7333,-151.4333,81.25,77,8,7.4,PF,1684603441
117,montrose,38.4166,-108.2673,58.41,55,97,1.39,US,1684603374
118,college,64.8569,-147.8028,64.38,46,75,9.22,US,1684603578
119,mutuali,-14.8706,37.0044,69.37,59,1,2.91,MZ,1684603851
120,mount pearl,47.5166,-52.7813,57.54,62,75,25.32,CA,1684603851
121,flying fish cove,-10.4217,105.6791,78.48,83,75,8.05,CX,1684603851
122,enewetak,11.3474,162.3373,81.59,82,85,14.92,MH,1684603276
123,san buenaventura,27.0833,-101.5333,76.48,78,100,6.91,MX,1684603852
124,sherbakul',54.6316,72.3963,56.61,50,92,6.8,RU,1684603852
125,canals,38.9625,-0.5844,68.77,48,90,1.99,ES,1684603852
126,yuzhno-kurilsk,44.0306,145.8556,40.87,95,89,8.19,RU,1684603442
127,vila velha,-20.3297,-40.2925,78.75,66,0,14.97,BR,1684603761
128,longquan,24.6719,102.1613,64.56,71,18,4.21,CN,1684603853
129,brookings,44.3114,-96.7984,65.08,47,0,8.05,US,1684603308
130,hluti,-27.2167,31.6167,57.13,70,3,2.08,SZ,1684603853
131,ghadamis,30.1337,9.5007,76.19,21,0,14.47,LY,1684603853
132,tura,25.5198,90.2201,70.77,82,20,5.37,IN,1684603293
133,harnosand,62.6323,17.9379,68.02,71,5,9.31,SE,1684603854
134,al bawiti,28.3492,28.8659,80.44,21,53,4.72,EG,1684603854
135,luderitz,-26.6481,15.1594,56.66,73,0,13.51,NA,1684603421
136,kingscliff,-28.2667,153.5667,51.76,87,0,4.61,AU,1684603854
137,knyaze-volkonskoye,48.4642,135.4567,50.34,89,100,8.59,RU,1684603854
138,naze,28.3667,129.4833,65.32,83,100,7.23,JP,1684603854
139,nadym,65.5333,72.5167,36.5,82,71,10.29,RU,1684603855
140,la libertad,-2.2333,-80.9,82.06,74,0,9.22,EC,1684603855
141,vershino-darasunskiy,52.35,115.5167,40.64,65,73,5.3,RU,1684603855
142,port macquarie,-31.4333,152.9167,41.9,67,0,7.76,AU,1684603784
143,kalmunai,7.4167,81.8167,81.36,79,7,9.73,LK,1684603403
144,nanchong,30.7951,106.0847,73.9,75,29,4.09,CN,1684603856
145,turbat,26.0023,63.044,87.69,56,20,8.55,PK,1684603380
146,riyadh,24.6877,46.7219,91.54,24,55,13.91,SA,1684603688
147,ribeira grande,38.5167,-28.7,68.4,68,40,12.66,PT,1684603856
148,barra de santo antonio,-9.4047,-35.5072,76.28,84,78,14.45,BR,1684603856
149,sinop,41.7711,34.8709,51.96,95,54,0.74,TR,1684603499
150,palmas,-10.2128,-48.3603,91.27,43,40,5.75,BR,1684603857
151,mount gambier,-37.8333,140.7667,54.34,77,90,12.62,AU,1684603857
152,san jose,37.3394,-121.895,69.53,67,20,15.99,US,1684603149
153,praia da vitoria,38.7333,-27.0667,68.25,68,75,15.9,PT,1684603857
154,baiyin,36.5583,104.2081,49.59,36,100,15.05,CN,1684603857
155,margaret river,-33.95,115.0667,53.15,66,65,9.64,AU,1684603857
156,gamba,-2.65,10.0,76.78,86,93,7.52,GA,1684603858
157,derzhavinsk,51.1,66.3167,59.09,40,100,12.68,KZ,1684603858
158,askale,39.9208,40.695,56.55,81,100,3.33,TR,1684603858
159,benghazi,32.1167,20.0667,71.04,71,43,12.82,LY,1684603795
160,ilulissat,69.2167,-51.1,30.22,93,75,16.11,GL,1684603863
161,kapuskasing,49.4169,-82.4331,68.09,37,0,5.75,CA,1684603820
162,beyneu,45.3167,55.2,72.03,40,73,7.05,KZ,1684603672
163,ravar,31.2656,56.8055,82.94,22,79,1.81,IR,1684603864
164,utrik,11.2278,169.8474,81.18,84,99,12.75,MH,1684603440
165,belmonte,-15.8631,-38.8828,77.43,69,36,13.44,BR,1684603865
166,haiku-pauwela,20.9219,-156.3051,76.05,82,20,1.99,US,1684603865
167,turkmenabat,39.0733,63.5786,80.58,29,0,9.22,TM,1684603866
168,la'ie,21.6477,-157.9253,78.76,89,9,3.0,US,1684603304
169,usogorsk,63.4106,48.6872,55.15,53,8,4.5,RU,1684603285
170,nuuk,64.1835,-51.7216,29.01,100,75,11.5,GL,1684603282
171,wailua homesteads,22.0669,-159.378,75.74,87,0,8.05,US,1684603867
172,las lomas,8.4333,-82.4,85.41,74,75,9.22,PA,1684603867
173,stanley,54.868,-1.6985,62.19,57,0,8.05,GB,1684603867
174,nova vicosa,-17.8919,-39.3719,76.59,65,56,10.54,BR,1684603868
175,maceio,-9.6658,-35.7353,76.44,94,100,6.91,BR,1684603868
176,mantua,45.1667,10.7833,66.34,88,100,4.0,IT,1684603868
177,ust-nera,64.5667,143.2,34.86,77,30,5.55,RU,1684603869
178,tvoroyri,61.5556,-6.8111,46.71,87,98,19.35,FO,1684603869
179,badger,64.8,-147.5333,64.31,45,100,9.22,US,1684603495
180,mosjoen,65.836,13.1908,55.92,54,100,5.01,NO,1684603870
181,ishigaki,24.3448,124.1572,75.33,88,100,1.14,JP,1684603714
182,petropavlovsk-kamchatsky,53.0452,158.6483,30.79,100,100,0.0,RU,1684603839
183,revda,56.801,59.9303,52.05,45,4,2.77,RU,1684603498
184,ugoofaaru,5.6667,73.0,84.43,69,69,5.32,MV,1684603354
185,kourou,5.1552,-52.6478,84.25,87,72,10.6,GF,1684603432
186,linxia chengguanzhen,35.6003,103.2064,43.39,68,100,10.33,CN,1684603873
187,awjilah,29.1081,21.2869,94.82,11,67,13.67,LY,1684603512
188,albany,42.6001,-73.9662,68.81,77,100,3.0,US,1684603402
189,singarayakonda,15.25,80.0333,82.94,74,98,9.78,IN,1684603873
190,richards bay,-28.783,32.0377,61.66,79,14,2.93,ZA,1684603874
191,lakatoro,-16.0999,167.4164,78.8,86,100,9.86,VU,1684603465
192,pineville,31.3224,-92.4343,89.87,61,0,6.91,US,1684603797
193,puerto ayora,-0.7393,-90.3518,87.76,89,88,8.99,EC,1684603875
194,talnakh,69.4865,88.3972,23.79,89,75,5.86,RU,1684603875
195,copala,16.65,-98.9833,92.57,50,63,9.55,MX,1684603875
196,la ronge,55.1001,-105.2842,55.62,54,20,12.66,CA,1684603875
197,ladario,-19.0047,-57.6017,88.09,40,0,9.22,BR,1684603722
198,enkoping,59.6361,17.0777,66.06,48,96,6.82,SE,1684603876
199,fortuna,40.5982,-124.1573,58.66,95,75,10.36,US,1684603641
200,katima mulilo,-17.5,24.2667,72.19,26,6,4.88,NA,1684603877
201,port lincoln,-34.7333,135.8667,58.8,76,74,16.06,AU,1684603877
202,castillos,-34.1667,-53.8333,62.67,72,100,10.85,UY,1684603482
203,barabai,-2.5833,115.3833,74.19,95,35,1.61,ID,1684603878
204,sitka,57.0531,-135.33,49.89,87,100,3.44,US,1684603879
205,pemangkat,1.1667,108.9667,78.82,87,27,6.35,ID,1684603880
206,sao paulo de olivenca,-3.3783,-68.8725,92.14,52,53,1.9,BR,1684603880
207,airuk,7.2772,168.8203,82.54,81,99,12.44,MH,1684603880
208,irati,-25.4672,-50.6511,73.9,32,29,2.93,BR,1684603880
209,tahoua,14.8888,5.2692,107.58,15,0,2.3,NE,1684603881
210,khandyga,62.6667,135.6,35.96,87,100,7.94,RU,1684603881
211,maiduguri,11.8464,13.1603,91.44,40,85,8.95,NG,1684603881
212,hadibu,12.65,54.0333,85.5,74,23,8.81,YE,1684603882
213,rio grande,-32.035,-52.0986,71.71,75,95,9.35,BR,1684603882
214,santa cruz,-17.8,-63.1667,73.45,94,100,4.61,BO,1684603781
215,cabedelo,-6.9811,-34.8339,83.07,78,53,11.34,BR,1684603443
216,ihosy,-22.4,46.1167,65.52,65,17,3.87,MG,1684603884
217,hermanus,-34.4187,19.2345,60.8,78,96,16.02,ZA,1684603884
218,corinto,37.9407,22.9573,71.89,51,100,4.09,GR,1684603884
219,trujillo,-8.116,-79.03,76.96,69,20,10.36,PE,1684603497
220,karasburg,-28.0167,18.75,58.3,21,0,6.15,NA,1684603885
221,longyearbyen,78.2186,15.6401,39.04,75,75,13.8,SJ,1684603885
222,christchurch,-43.5333,172.6333,49.91,94,75,13.8,NZ,1684603884
223,agat village,13.3886,144.6585,80.71,88,0,4.61,GU,1684603886
224,kibaya,-5.3,36.5667,60.19,81,93,5.73,TZ,1684603886
225,papatowai,-46.5619,169.4708,49.62,77,100,7.07,NZ,1684603887
226,blacksburg,37.2296,-80.4139,75.79,73,75,0.0,US,1684603887
227,crucecita,-28.95,-58.9833,73.63,57,99,4.18,AR,1684603887
228,mbanga,4.5016,9.5671,76.82,96,100,1.19,CM,1684603888
229,wellington,-41.2866,174.7756,56.86,90,100,26.46,NZ,1684603872
230,al bahah,20.0129,41.4677,69.22,60,12,8.34,SA,1684603591
231,novaya igirma,57.1334,103.9112,43.56,65,84,4.09,RU,1684603888
232,luena,-11.7833,19.9167,77.18,47,97,5.75,AO,1684603889
233,pacasmayo,-7.4006,-79.5714,76.87,73,79,15.7,PE,1684603889
234,touros,-5.1989,-35.4608,83.43,71,52,13.18,BR,1684603889
235,pisco,-13.7,-76.2167,73.45,68,100,16.11,PE,1684603890
236,hithadhoo,-0.6,73.0833,82.47,72,13,3.24,MV,1684603890
237,the pas,53.8251,-101.2541,55.42,62,0,11.5,CA,1684603891
238,taltal,-25.4,-70.4833,65.08,74,92,4.45,CL,1684603891
239,sao lourenco do oeste,-26.3592,-52.8511,70.02,39,89,5.08,BR,1684603891
240,mount darwin,-16.7725,31.5838,68.88,46,61,2.93,ZW,1684603892
241,lagoa,39.05,-27.9833,62.55,72,100,15.64,PT,1684603893
242,raisen,23.3333,77.8,90.5,17,18,4.47,IN,1684603895
243,qal'ah-ye shahr,35.5473,65.5676,60.22,37,100,4.0,AF,1684603895
244,saldanha,-33.0117,17.9442,59.05,86,40,7.49,ZA,1684603474
245,lydenburg,-25.0978,30.4597,49.8,56,0,1.61,ZA,1684603896
246,coronel dorrego,-38.7187,-61.2873,56.71,41,3,11.05,AR,1684603896
247,sarkand,45.41,79.9186,55.42,57,66,6.96,KZ,1684603896
248,sydney mines,46.2367,-60.2177,72.14,57,75,13.8,CA,1684603896
249,tofol,5.3248,163.0078,82.6,75,76,6.46,FM,1684603610
250,pionerskiy,54.9508,20.2275,60.64,71,100,12.33,RU,1684603897
251,nabire,-3.3667,135.4833,74.97,92,95,4.18,ID,1684603520
252,ha tien,10.3833,104.4833,84.97,72,100,11.48,VN,1684603897
253,pokaran,26.9167,71.9167,95.04,27,4,23.26,IN,1684603897
254,whitehorse,60.7161,-135.0538,59.09,48,75,10.36,CA,1684603898
255,vangaindrano,-23.35,47.6,70.39,80,0,2.39,MG,1684603898
256,fomboni,-12.28,43.7425,81.09,76,12,12.59,KM,1684603898
257,san felipe,10.3399,-68.7425,86.68,60,100,5.03,VE,1684603898
258,ishinomaki,38.4167,141.3,54.52,92,100,2.86,JP,1684603898
259,maasim,5.8575,125.0061,79.72,79,70,3.24,PH,1684603899
260,kurmuk,10.55,34.2833,85.95,35,86,2.59,SD,1684603899
261,lubango,-14.9172,13.4925,61.47,51,0,2.86,AO,1684603402
262,remire-montjoly,4.9167,-52.2667,84.24,70,75,17.27,GF,1684603899
263,xuanzhou,30.9525,118.7553,69.75,83,100,4.05,CN,1684603899
264,korhogo,9.45,-5.6333,90.32,43,95,3.69,CI,1684603900
265,egilsstadir,65.2653,-14.3948,53.51,40,40,27.63,IS,1684603900
266,san patricio,28.017,-97.5169,85.91,69,100,7.56,US,1684603900
267,key west,24.5557,-81.7826,87.8,68,0,9.22,US,1684603776
268,huangyan,28.6478,121.2594,66.06,96,100,1.63,CN,1684603900
269,oranjemund,-28.55,16.4333,54.09,83,0,8.21,NA,1684603901
270,saint croix,17.7397,-64.7388,86.45,62,20,16.11,VI,1684603901
271,trail,49.0998,-117.7022,86.97,45,36,1.81,CA,1684603626
272,mastic beach,40.7668,-72.8521,64.54,96,100,10.36,US,1684603901
273,el fasher,13.6279,25.3494,89.94,11,37,10.31,SD,1684603901
274,urengoy,65.9667,78.3667,34.97,79,95,8.97,RU,1684603902
275,zhezqazghan,47.7833,67.7667,60.53,53,77,9.44,KZ,1684603497
276,ngerengere,-6.75,38.1167,72.7,79,100,2.48,TZ,1684603691
277,al fuwayliq,26.4432,43.2534,85.95,7,0,11.68,SA,1684603902
278,esbly,48.9052,2.8124,69.1,57,64,4.0,FR,1684603902
279,al ghayzah,16.2079,52.176,86.11,72,27,12.86,YE,1684603903
280,cota,4.8094,-74.098,67.98,52,75,9.22,CO,1684603903
281,koryazhma,61.3143,47.1691,52.12,88,86,1.79,RU,1684603392
282,ningyang,35.7642,116.7914,62.92,71,80,6.55,CN,1684603903
283,moree,-29.4667,149.85,45.91,68,0,6.26,AU,1684603903
284,boguchany,58.3814,97.4531,52.07,80,95,1.81,RU,1684603903
285,metlili chaamba,32.2667,3.6333,74.34,22,5,17.27,DZ,1684603904
286,mana,5.6592,-53.7767,81.5,86,62,10.67,GF,1684603904
287,coahuayana de hidalgo,18.7,-103.6583,91.89,41,99,7.36,MX,1684603904
288,banda aceh,5.5577,95.3222,81.32,83,94,5.1,ID,1684603904
289,la villa del rosario,10.3258,-72.3134,93.09,52,100,5.77,VE,1684603904
290,howrah,22.5892,88.3103,86.0,89,40,10.36,IN,1684603517
291,damghan,36.1683,54.348,78.44,21,23,5.01,IR,1684603905
292,sinabang,2.4803,96.3801,81.12,82,97,4.23,ID,1684603499
293,taber,49.8167,-112.1518,76.84,43,15,6.91,CA,1684603807
294,alnwick,55.4132,-1.7056,60.89,76,29,12.66,GB,1684603905
295,genhe,50.7833,121.5167,43.09,54,50,6.02,CN,1684603905
296,pangody,65.85,74.4859,35.17,85,44,8.75,RU,1684603480
297,walvis bay,-22.9575,14.5053,58.15,82,2,4.61,NA,1684603906
298,black river,18.0264,-77.8487,87.78,61,12,7.09,JM,1684603906
299,ormara,25.2088,64.6357,82.36,88,7,14.41,PK,1684603906
300,madang,-5.2246,145.7966,75.47,93,99,7.02,PG,1684603906
301,inarajan village,13.2736,144.7484,80.74,94,98,11.77,GU,1684603907
302,guarapari,-20.6667,-40.4975,75.88,64,4,7.87,BR,1684603907
303,san julian,21.0167,-102.1667,66.51,55,100,4.41,MX,1684603907
304,mahalapye,-23.1041,26.8142,65.39,30,0,4.72,BW,1684603907
305,katabu,-4.9333,122.5167,74.01,91,70,3.85,ID,1684603493
306,kalevala,65.2,31.1667,57.96,51,36,4.68,RU,1684603907
307,port alfred,-33.5906,26.891,54.18,88,0,1.01,ZA,1684603908
308,saint-zotique,45.2501,-74.2492,68.2,64,100,3.44,CA,1684603908
309,bitkine,11.9801,18.2138,97.61,23,72,2.01,TD,1684603908
310,kavaratti,10.5669,72.642,85.44,68,6,9.78,IN,1684603490
311,juneau,58.3019,-134.4197,53.6,98,100,5.75,US,1684603805
312,ulladulla,-35.35,150.4667,52.77,62,32,14.52,AU,1684603908
313,boa vista,2.8197,-60.6733,87.78,62,75,6.91,BR,1684603909
314,okha,53.5739,142.9478,38.71,88,50,8.66,RU,1684603909
315,lompoc,34.6391,-120.4579,65.84,84,75,3.44,US,1684603886
316,xiaoweizhai,26.1903,107.5125,70.27,99,62,3.42,CN,1684603909
317,queenstown,-31.8976,26.8753,49.5,31,1,6.17,ZA,1684603366
318,lata,40.1629,-8.3327,70.07,27,100,6.15,PT,1684603462
319,nar'yan-mar,67.6713,53.087,44.56,62,76,4.54,RU,1684603482
320,gemena,3.25,19.7667,77.85,69,91,1.88,CD,1684603910
321,polyarnyy,69.1989,33.4478,50.11,73,97,3.13,RU,1684603910
322,zeribet el oued,34.6828,6.5111,77.41,31,22,11.07,DZ,1684603910
323,qamdo,31.1667,97.2333,40.21,48,39,5.91,CN,1684603438
324,dunedin,-45.8742,170.5036,46.8,80,100,7.0,NZ,1684603488
325,bayanhongor,46.7167,100.1167,30.6,23,1,3.02,MN,1684603586
326,yarmouth,41.7057,-70.2286,64.87,91,100,10.36,US,1684603911
327,aykhal,66.0,111.5,30.92,98,100,13.31,RU,1684603911
328,umm kaddadah,13.6017,26.6876,90.18,10,25,9.44,SD,1684603911
329,funafuti,-8.5243,179.1942,84.2,89,40,11.5,TV,1684603912
330,nishinoomote,30.7333,131.0,70.72,84,100,4.41,JP,1684603912
331,shimoda,34.6667,138.95,63.1,91,54,9.64,JP,1684603912
332,fortaleza,-3.7227,-38.5247,87.93,66,20,18.41,BR,1684603800
333,mitsamiouli,-11.3847,43.2844,80.49,78,37,7.58,KM,1684603912
334,huarmey,-10.0681,-78.1522,76.44,70,90,9.8,PE,1684603496
335,acajutla,13.5928,-89.8275,91.53,43,100,8.25,SV,1684603913
336,dera bugti,29.0307,69.151,96.53,11,2,6.71,PK,1684603913
337,naha,26.2125,127.6811,73.31,80,20,5.75,JP,1684603913
338,myeik,12.4333,98.6,81.45,77,39,5.28,MM,1684603913
339,udachny,66.4167,112.4,34.45,92,100,14.63,RU,1684603913
340,murun-kuren,49.6342,100.1625,35.28,68,91,0.98,MN,1684603914
341,antofagasta,-23.65,-70.4,65.48,68,100,6.91,CL,1684603489
342,warwick,41.7001,-71.4162,65.01,90,100,23.02,US,1684603865
343,aur,8.1499,171.1687,82.26,83,100,13.76,MH,1684603532
344,alvesta,56.8993,14.5556,66.45,35,56,5.75,SE,1684603914
345,las vegas,36.175,-115.1372,85.26,34,0,4.61,US,1684603748
346,parintins,-2.6283,-56.7358,89.02,59,77,4.76,BR,1684603914
347,athens,37.9795,23.7162,73.4,45,40,10.36,GR,1684603809
348,mil'kovo,55.6078,37.7956,57.6,66,72,8.16,RU,1684603503
349,rongelap,11.1635,166.8941,81.19,83,89,13.22,MH,1684603276
350,bakchar,57.0186,82.0711,54.34,64,54,4.56,RU,1684603915
351,suntar,62.1444,117.6319,41.67,93,56,4.43,RU,1684603915
352,beni,0.5,29.4667,67.12,83,53,2.44,CD,1684603915
353,kayangel,8.0823,134.7173,83.57,75,99,11.39,PW,1684603916
354,el calafate,-50.3408,-72.2768,38.5,74,70,1.16,AR,1684603916
355,valparaiso,-33.0393,-71.6273,64.99,74,20,6.91,CL,1684603916
356,palmer,42.1584,-72.3287,64.51,84,100,4.61,US,1684603701
357,thinadhoo,0.5333,72.9333,83.28,71,8,5.88,MV,1684603916
358,king,47.4665,-121.8179,65.37,69,51,5.01,US,1684603917
359,jutai,-5.1833,-68.9,93.33,48,91,3.69,BR,1684603917
360,severnoye,56.3491,78.3619,52.48,55,49,6.17,RU,1684603917
361,caconda,-13.7333,15.0667,66.47,41,6,7.11,AO,1684603474
362,tadine,-21.55,167.8833,70.14,62,46,7.29,NC,1684603917
363,north manchester,41.0006,-85.7686,60.21,71,29,14.92,US,1684603918
364,nova sintra,14.8667,-24.7167,68.14,80,32,21.14,CV,1684603918
365,malango,-2.9627,119.9001,68.16,98,93,1.12,ID,1684603477
366,tazovsky,67.4667,78.7,27.16,89,89,5.46,RU,1684603457
367,steinkjer,64.193,11.3851,52.74,68,78,6.67,NO,1684603918
368,ts'nori,41.6209,45.9694,63.12,75,100,0.87,GE,1684603919
369,veraval,20.9,70.3667,83.28,79,0,14.65,IN,1684603322
370,crane,31.3974,-102.3501,69.78,61,98,11.21,US,1684603919
371,hastings,50.8552,0.5729,64.15,82,7,17.92,GB,1684603919
372,usinsk,65.9939,57.5281,42.91,71,9,2.04,RU,1684603919
373,statesville,35.7826,-80.8873,72.66,73,100,3.44,US,1684603807
374,sturgis,41.7992,-85.4192,56.88,78,100,10.36,US,1684603902
375,bel ombre,-4.6167,55.4167,82.24,78,20,9.22,SC,1684603920
376,ciudad bolivar,8.1222,-63.5497,92.25,47,100,8.1,VE,1684603920
377,nanzhou,29.3596,112.4024,74.53,90,20,4.16,CN,1684603920
378,mount isa,-20.7333,139.5,53.37,40,0,11.5,AU,1684603834
379,korla,41.7597,86.1469,63.97,51,44,11.9,CN,1684603439
380,tempio pausania,40.8974,9.1035,56.32,98,100,8.28,IT,1684603921
381,sombor,45.7742,19.1122,69.71,73,3,8.14,RS,1684603921
382,lock haven,41.137,-77.4469,70.7,64,100,9.84,US,1684603921
383,shingu,33.7333,135.9833,67.14,90,100,2.84,JP,1684603922
384,isabela,6.7085,121.9711,78.21,81,94,1.74,PH,1684603922
385,progreso,21.2833,-89.6667,91.51,60,100,13.71,MX,1684603922
386,menongue,-14.6585,17.691,74.19,30,45,0.38,AO,1684603483
387,tsiombe,-25.3,45.4833,69.17,90,0,9.44,MG,1684603923
388,mek'ele,13.4967,39.4753,72.48,48,93,8.72,ET,1684603924
389,arraial do cabo,-22.9661,-42.0278,78.76,61,20,9.22,BR,1684603924
390,ta`u,-14.2336,-169.5144,82.96,81,100,16.31,AS,1684603490
391,dauphin,51.1494,-100.0502,75.34,31,0,12.66,CA,1684603288
392,hovd,48.0056,91.6419,45.5,23,96,3.42,MN,1684603648
393,la passe,45.5549,-0.8967,66.43,76,94,11.32,FR,1684603925
394,ilam,26.9167,87.9167,67.19,66,50,5.64,NP,1684603925
395,tazacorte,28.629,-17.9293,68.97,76,75,6.91,ES,1684603334
396,fort st. john,56.2499,-120.8529,55.29,67,100,2.3,CA,1684603720
397,lorengau,-2.0226,147.2712,81.32,82,100,15.7,PG,1684603471
398,morro bay,35.3658,-120.8499,74.59,60,15,4.0,US,1684603787
399,medina,24.4686,39.6142,90.03,13,0,10.36,SA,1684603801
400,kili,5.6439,169.1211,82.06,82,100,10.47,MH,1684603927
401,leh,34.1667,77.5833,47.26,32,17,4.34,IN,1684603590
402,nikolayevsk-on-amure,53.1406,140.73,43.95,81,98,2.86,RU,1684603548
403,midvagur,62.0511,-7.1939,45.43,100,75,6.91,FO,1684603928
404,mcpherson,38.3708,-97.6642,65.35,58,2,8.05,US,1684603928
405,north battleford,52.7834,-108.2847,68.09,40,0,8.05,CA,1684603928
406,fort bragg,35.139,-79.006,79.83,59,100,4.61,US,1684603929
407,laguna,38.421,-121.4238,72.01,65,0,8.05,US,1684603480
408,vadso,70.0744,29.7487,59.88,62,40,6.91,NO,1684603440
409,fisterra,42.9049,-9.2629,67.75,70,1,25.17,ES,1684603930
410,petrolina,-9.3986,-40.5008,82.45,54,75,10.36,BR,1684603930
411,malyye derbety,47.9547,44.6808,66.47,42,68,6.58,RU,1684603931
412,acarau,-2.8856,-40.12,83.12,78,76,12.06,BR,1684603876
413,port douglas,-16.4833,145.4667,69.04,78,75,7.49,AU,1684603931
414,kyren,51.6828,102.1408,38.19,83,96,3.22,RU,1684603932
415,khanty-mansiysk,61.0042,69.0019,60.12,36,0,0.0,RU,1684603706
416,borogontsy,62.6683,131.1683,36.03,90,100,13.04,RU,1684603933
417,geraldton,-28.7667,114.6,57.61,44,34,4.61,AU,1684603497
418,as sulayyil,20.4607,45.5779,82.65,23,74,7.07,SA,1684603934
419,bayganin,48.6947,55.8742,55.83,88,87,3.56,KZ,1684603934
420,kabansk,52.0486,106.6528,37.04,92,49,6.91,RU,1684603935
421,kosh-agach,50.0,88.6667,43.63,38,59,6.38,RU,1684603935
422,auki,-8.7676,160.7034,77.54,87,100,0.87,SB,1684603936
423,baruun-urt,46.6806,113.2792,44.91,63,43,6.04,MN,1684603751
424,sale,34.0389,-6.8166,70.63,64,40,6.91,MA,1684603936
425,chui,-33.6971,-53.4616,62.78,77,100,10.36,UY,1684603937
426,mossel bay,-34.1831,22.146,57.13,70,66,3.65,ZA,1684603937
427,maryborough,-25.5333,152.7,48.06,55,0,5.12,AU,1684603852
428,kapa'a,22.0752,-159.319,76.48,88,0,8.05,US,1684603606
429,cockburn town,21.4612,-71.1419,80.98,75,100,11.36,TC,1684603938
430,eduardo castex,-35.915,-64.2945,60.28,39,0,12.21,AR,1684603938
431,black point,-34.6187,137.8972,58.69,79,47,14.97,AU,1684603939
432,xiva,41.3783,60.3639,69.78,30,31,10.36,UZ,1684603939
433,kangding,30.0513,101.9603,55.11,95,94,1.81,CN,1684603940
434,otjimbingwe,-22.35,16.1333,71.19,16,0,5.91,NA,1684603940
435,hinton,53.4001,-117.5857,78.69,27,72,1.92,CA,1684603940
436,winnemucca,40.973,-117.7357,75.25,33,0,8.05,US,1684603828
437,mananjary,-21.2167,48.3333,74.46,90,0,4.56,MG,1684603644
438,akureyri,65.6835,-18.0878,51.73,37,75,19.57,IS,1684603478
439,clifton,40.8584,-74.1638,64.51,94,100,6.91,US,1684603813
440,porto novo,6.4965,2.6036,84.02,81,100,10.13,BJ,1684603941
441,belle fourche,44.6714,-103.8522,79.34,44,1,3.83,US,1684603942
442,harrisburg,40.2737,-76.8844,75.11,68,40,10.36,US,1684603244
443,tsetserleg,47.475,101.4542,29.62,67,3,4.0,MN,1684603490
444,mirny,62.5353,113.9611,48.43,84,96,11.59,RU,1684603942
445,necochea,-38.5473,-58.7368,54.97,53,82,6.62,AR,1684603723
446,ouezzane,34.7971,-5.5822,69.73,41,100,10.71,MA,1684603943
447,wickenburg,33.9686,-112.7296,84.45,35,7,5.26,US,1684603740
448,newman,37.3138,-121.0208,75.24,57,0,4.0,US,1684603295
449,happy valley-goose bay,53.3168,-60.3315,59.31,25,20,21.85,CA,1684603944
450,ratnagiri,16.9833,73.3,82.38,84,1,11.27,IN,1684603944
451,chegdomyn,51.1167,133.0167,47.89,82,100,3.78,RU,1684603944
452,kabinda,-6.1333,24.4833,77.61,58,91,1.54,CD,1684603945
453,zonguldak,41.25,31.8333,51.94,94,86,0.43,TR,1684603945
454,bismil,37.8486,40.6658,73.51,74,35,1.72,TR,1684603945
455,lucapa,-8.4192,20.7447,76.03,61,98,6.73,AO,1684603946
456,turuntayevo,52.2,107.6167,35.04,97,80,1.54,RU,1684603946
457,kuloy,61.0305,42.4925,54.73,61,83,1.05,RU,1684603946
458,fiambala,-27.6871,-67.6149,63.84,52,62,6.49,AR,1684603947
459,nantucket,41.2835,-70.0995,61.14,100,100,16.11,US,1684603691
460,altai,46.3722,96.2583,37.27,22,70,4.43,MN,1684603947
461,taoudenni,22.6783,-3.9836,98.35,6,2,5.77,ML,1684603831
462,eastham,41.8301,-69.9739,64.38,90,100,10.36,US,1684603948
463,gaiman,-43.2897,-65.4929,60.42,15,33,34.67,AR,1684603405
464,wanning,18.8003,110.3967,80.87,96,17,9.13,CN,1684603949
465,longboat key,27.4125,-82.659,92.23,59,0,11.5,US,1684603949
466,luchegorsk,46.4764,134.2569,48.29,95,100,5.82,RU,1684603949
467,puerto leguizamo,-0.1934,-74.7819,87.31,63,80,2.84,CO,1684603950
468,dongsheng,39.8161,109.9776,47.32,18,99,15.48,CN,1684603950
469,maumere,-8.6199,122.2111,77.83,71,88,8.97,ID,1684603950
470,saint-pierre,-21.3393,55.4781,74.88,83,0,4.61,RE,1684603951
471,xinyuan,37.3,99.0,30.45,91,100,5.23,CN,1684603479
472,lobujya,27.95,86.8167,16.2,92,78,1.74,NP,1684603952
473,sao jose da coroa grande,-8.8978,-35.1478,78.44,86,82,11.79,BR,1684603952
474,dondo,-19.6094,34.7431,72.32,93,17,5.44,MZ,1684603952
475,hirara,24.8,125.2833,71.87,88,60,2.3,JP,1684603671
476,pavlodar,52.3,76.95,49.8,46,0,8.95,KZ,1684603953
477,cannonvale,-20.2833,148.7,67.39,79,9,7.4,AU,1684603478
478,howard springs,-12.497,131.047,67.91,52,80,9.66,AU,1684603953
479,balkanabat,39.5108,54.3671,84.49,25,77,11.21,TM,1684603954
480,dum duma,27.5667,95.5667,70.5,95,74,2.98,IN,1684603954
481,amga,60.8953,131.9608,41.07,97,100,10.22,RU,1684603445
482,st. john's,47.5649,-52.7093,58.39,62,75,25.32,CA,1684603819
483,morehead city,34.7229,-76.726,75.99,87,100,5.75,US,1684603955
484,monte argentario,42.4345,11.1195,67.8,86,100,5.82,IT,1684603955
485,mtambile,-5.3833,39.7,80.37,80,97,13.29,TZ,1684603955
486,azul,-36.777,-59.8585,57.06,35,0,6.85,AR,1684603706
487,pajacuaran,20.1167,-102.5667,78.53,45,99,3.83,MX,1684603955
488,young,-32.6833,-57.6333,64.56,67,100,10.4,UY,1684603955
489,tralee,52.2704,-9.7026,57.45,100,100,4.61,IE,1684603956
490,lenger,42.183,69.8839,65.64,50,34,6.02,KZ,1684603956
491,kolonia town,6.964,158.206,77.0,94,75,0.0,FM,1684603956
492,gorontalo,0.5412,123.0595,74.39,95,78,2.66,ID,1684603956
493,den burg,53.0542,4.7972,61.97,78,20,17.27,NL,1684603957
494,argo,37.6333,22.7333,71.78,49,100,3.22,GR,1684603518
495,puerto baquerizo moreno,-0.9,-89.6,81.59,83,75,16.11,EC,1684603957
496,lijiang,26.8688,100.2207,53.85,76,0,5.64,CN,1684603445
497,bereznik,62.8551,42.7072,51.84,55,14,3.87,RU,1684603957
498,ulaangom,49.9811,92.0667,44.92,24,18,2.86,MN,1684603490
499,aleksandrovsk-sakhalinskiy,50.8975,142.1561,40.01,94,72,5.41,RU,1684603958
500,juegang,32.3174,121.1855,61.83,95,85,10.94,CN,1684603958
501,iquitos,-3.7481,-73.2472,87.84,84,75,2.3,PE,1684603958
502,yakeshi,49.2833,120.7333,43.21,62,3,4.23,CN,1684603958
503,lautoka,-17.6167,177.4667,76.86,83,75,0.0,FJ,1684603958
504,sao joao da barra,-21.6403,-41.0511,80.69,61,49,6.17,BR,1684603959
505,susuman,62.7833,148.1667,32.45,97,100,7.07,RU,1684603959
506,la foa,-21.7108,165.8276,66.42,70,41,3.42,NC,1684603959
507,chumphon,10.3333,98.8333,75.06,90,84,3.31,TH,1684603959
508,sokoni,-6.4333,39.55,81.21,80,91,13.18,TZ,1684603960
509,chonchi,-42.6128,-73.8092,45.12,91,100,10.89,CL,1684603945
510,dhidhdhoo,6.8833,73.1,84.51,73,40,7.63,MV,1684603500
511,bardai,11.65,7.2333,87.33,45,99,11.52,NG,1684603472
512,belyy yar,53.6039,91.3903,57.09,28,0,11.18,RU,1684603960
513,luwuk,-0.9516,122.7875,76.66,89,81,3.58,ID,1684603960
514,kuusamo,65.9667,29.1833,66.24,30,0,9.22,FI,1684603961
515,shangqiu,34.45,115.65,67.44,90,100,9.8,CN,1684603961
516,abalak,58.1286,68.5944,57.24,43,100,3.06,RU,1684603961
517,constitucion,-35.3333,-72.4167,57.4,54,3,5.82,CL,1684603944
518,hami,42.8,93.45,69.03,9,57,15.59,CN,1684603476
519,eyl,7.9803,49.8164,84.07,78,44,14.03,SO,1684603511
520,arno,60.1167,18.6333,47.79,51,72,9.37,SE,1684603962
521,hamilton,39.1834,-84.5333,71.26,56,20,11.5,US,1684603962
522,bratislava,48.1482,17.1067,73.72,49,0,6.91,SK,1684603962
523,mercedes,-34.6515,-59.4307,61.86,58,98,9.82,AR,1684603962
524,am timan,11.0297,20.2827,100.51,19,82,4.61,TD,1684603962
525,pontian kechil,1.4866,103.3896,81.0,90,91,5.08,MY,1684603963
526,tripoli,32.8752,13.1875,70.2,59,18,10.0,LY,1684603963
527,muroto-misakicho,33.2833,134.15,67.95,85,95,6.73,JP,1684603963
528,visakhapatnam,17.69,83.2093,85.89,94,75,5.75,IN,1684603963
529,buka,40.8108,69.1986,71.06,41,1,4.34,UZ,1684603478
530,moanda,-1.5575,13.2178,75.06,92,100,0.89,GA,1684603964
531,antonio enes,-16.2325,39.9086,76.68,81,0,8.05,MZ,1684603964
532,praia,14.9215,-23.5087,79.34,61,75,21.85,CV,1684603964
533,chibougamau,49.9168,-74.3659,56.82,62,0,3.44,CA,1684603497
534,cattolica,43.9575,12.7376,62.87,88,40,2.3,IT,1684603964
535,san antonio de pale,-1.4014,5.6325,80.94,74,98,12.3,GQ,1684603965
536,camayenne,9.535,-13.6878,84.29,79,75,9.22,GN,1684603965
537,punta del este,-34.9667,-54.95,62.71,73,75,14.97,UY,1684603965
538,yuxi,24.355,102.5422,64.38,70,4,3.74,CN,1684603965
539,kununurra,-15.7667,128.7333,66.18,32,87,8.05,AU,1684603519
540,beira,-19.8436,34.8389,75.76,86,4,7.65,MZ,1684603965
541,maxixe,-23.8597,35.3472,72.19,68,98,6.06,MZ,1684603966
542,naama,33.2667,-0.3167,65.53,42,53,9.37,DZ,1684603966
543,preobrazheniye,42.9019,133.9064,48.02,97,100,7.63,RU,1684603966
544,rikaze,29.25,88.8833,47.5,37,50,5.14,CN,1684603966
545,barah,13.7,30.3667,89.13,11,39,8.19,SD,1684603966
546,janakpur,26.7183,85.9065,86.95,31,0,9.91,NP,1684603967
547,benjamin aceval,-24.9667,-57.5667,69.94,59,100,2.95,PY,1684603967
548,west bay,19.3667,-81.4167,87.87,66,20,9.22,KY,1684603967
549,lamu,-2.2717,40.902,80.82,85,100,11.18,KE,1684603468
550,ponnani,10.767,75.9252,81.72,81,90,5.95,IN,1684603967
551,sidi akkacha,36.4647,1.3026,71.89,53,2,8.01,DZ,1684603967
552,conduaga,8.862,117.4893,77.88,84,99,2.66,PH,1684603968
553,angaur state,6.906,134.13,84.04,76,100,13.65,PW,1684603968
554,vilyuysk,63.7553,121.6247,30.7,84,98,4.56,RU,1684603566
555,nalut,30.3333,10.85,73.58,24,0,18.54,LY,1684603968
556,devrek,41.2192,31.9558,57.43,94,91,1.21,TR,1684603969
557,emmett,43.8735,-116.4993,81.37,43,24,1.01,US,1684603969
558,northam,51.0333,-4.2167,62.38,76,0,7.18,GB,1684603969
559,codrington,-38.2667,141.9667,55.89,79,99,22.59,AU,1684603461
560,stephenville,32.2207,-98.2023,71.92,52,0,11.5,US,1684603856
561,bordighera,43.7806,7.6645,66.56,62,100,5.01,IT,1684603969
562,pandan,14.0453,124.1694,79.99,84,95,4.25,PH,1684603486
563,moyale,3.5167,39.0584,68.97,67,2,3.33,KE,1684603970
564,uruguaiana,-29.7547,-57.0883,71.53,83,100,8.05,BR,1684603823
